data = [{"id":1,"city":"Adelaide","lat":-34.928661,"lng":138.598633,"state/territory":"South Australia","population":1145000},{"id":2,"city":"Adelaide River","lat":-13.23943,"lng":131.10733,"state/territory":"Northern Territory","population":237},{"id":3,"city":"Albany","lat":-35.003101,"lng":117.865952,"state/territory":"Western Australia","population":26445},{"id":4,"city":"Albury","lat":-36.074823,"lng":146.924006,"state/territory":"New South Wales","population":104258},{"id":5,"city":"Alice Springs","lat":-23.697479,"lng":133.883621,"state/territory":"Northern Territory","population":27710},{"id":6,"city":"Andamooka","lat":-30.44972,"lng":137.163651,"state/territory":"South Australia","population":528},{"id":7,"city":"Ararat","lat":-37.285419,"lng":142.927277,"state/territory":"Victoria","population":6110},{"id":8,"city":"Armidale","lat":-30.50828,"lng":151.671234,"state/territory":"New South Wales","population":22673},{"id":9,"city":"Atherton","lat":-17.268641,"lng":145.47522,"state/territory":"Queensland","population":6959},{"id":10,"city":"Ayr","lat":-19.573931,"lng":147.406662,"state/territory":"Queensland","population":9078},{"id":11,"city":"Bairnsdale East","lat":-37.830789,"lng":147.651752,"state/territory":"Victoria","population":11005},{"id":12,"city":"Ballarat","lat":-37.56266,"lng":143.862579,"state/territory":"Victoria","population":85109},{"id":13,"city":"Ballina","lat":-28.86414,"lng":153.565414,"state/territory":"New South Wales","population":14242},{"id":14,"city":"Barcaldine","lat":-23.55353,"lng":145.285416,"state/territory":"Queensland","population":1068},{"id":15,"city":"Batemans Bay","lat":-35.706581,"lng":150.175415,"state/territory":"New South Wales","population":10557},{"id":16,"city":"Bathurst","lat":-33.417358,"lng":149.581284,"state/territory":"New South Wales","population":6111},{"id":17,"city":"Bedourie","lat":-24.3637,"lng":139.465277,"state/territory":"Queensland","population":142},{"id":18,"city":"Bendigo","lat":-36.758179,"lng":144.280243,"state/territory":"Victoria","population":81657},{"id":19,"city":"Berri","lat":-34.281071,"lng":140.599579,"state/territory":"South Australia","population":4716},{"id":20,"city":"Bicheno","lat":-41.884764,"lng":148.301446,"state/territory":"Tasmania","population":177},{"id":21,"city":"Biloela","lat":-24.395895,"lng":150.515043,"state/territory":"Queensland","population":6309},{"id":22,"city":"Birdsville","lat":-25.898001,"lng":139.351726,"state/territory":"Queensland","population":283},{"id":23,"city":"Bongaree","lat":-27.08367,"lng":153.159424,"state/territory":"Queensland","population":13649},{"id":24,"city":"Bordertown","lat":-36.307678,"lng":140.771667,"state/territory":"South Australia","population":2583},{"id":25,"city":"Boulia","lat":-22.91139,"lng":139.909348,"state/territory":"Queensland","population":600},{"id":26,"city":"Bourke","lat":-30.09008,"lng":145.945435,"state/territory":"New South Wales","population":2475},{"id":27,"city":"Bowen","lat":-20.01367,"lng":148.247543,"state/territory":"Queensland","population":10983},{"id":28,"city":"Brisbane","lat":-27.47101,"lng":153.024292,"state/territory":"Queensland","population":1860000},{"id":29,"city":"Broken Hill","lat":-31.9652,"lng":141.451202,"state/territory":"New South Wales","population":17395},{"id":30,"city":"Broome","lat":-17.955379,"lng":122.23922,"state/territory":"Western Australia","population":13218},{"id":31,"city":"Bunbury","lat":-33.32711,"lng":115.641373,"state/territory":"Western Australia","population":26998},{"id":32,"city":"Bundaberg","lat":-24.866211,"lng":152.3479,"state/territory":"Queensland","population":52472},{"id":33,"city":"Burketown","lat":-17.741051,"lng":139.547745,"state/territory":"Queensland","population":200},{"id":34,"city":"Burnie","lat":-41.05584,"lng":145.903748,"state/territory":"Tasmania","population":19972},{"id":35,"city":"Busselton","lat":-33.652489,"lng":115.345497,"state/territory":"Western Australia","population":10214},{"id":36,"city":"Byron Bay","lat":-28.64201,"lng":153.611938,"state/territory":"New South Wales","population":6764},{"id":37,"city":"Caboolture","lat":-27.08465,"lng":152.951096,"state/territory":"Queensland","population":31513},{"id":38,"city":"Cairns","lat":-16.92304,"lng":145.766251,"state/territory":"Queensland","population":154225},{"id":39,"city":"Caloundra","lat":-26.797091,"lng":153.137711,"state/territory":"Queensland","population":38706},{"id":40,"city":"Camooweal","lat":-19.921539,"lng":138.120132,"state/territory":"Queensland","population":187},{"id":41,"city":"Canberra","lat":-35.27603,"lng":149.13435,"state/territory":"Australian Capital Territory","population":327700},{"id":42,"city":"Carnarvon","lat":-24.88073,"lng":113.659401,"state/territory":"Western Australia","population":7392},{"id":43,"city":"Ceduna","lat":-32.121559,"lng":133.678665,"state/territory":"South Australia","population":1586},{"id":44,"city":"Central Coast","lat":-33.42979,"lng":151.371445,"state/territory":"New South Wales","population":3026},{"id":45,"city":"Charleville","lat":-26.40542,"lng":146.242737,"state/territory":"Queensland","population":1900},{"id":46,"city":"Charters Towers","lat":-20.07671,"lng":146.263535,"state/territory":"Queensland","population":9573},{"id":47,"city":"Clare","lat":-33.833248,"lng":138.610641,"state/territory":"South Australia","population":3061},{"id":48,"city":"Cloncurry","lat":-20.70718,"lng":140.513031,"state/territory":"Queensland","population":1202},{"id":49,"city":"Cobram","lat":-35.920689,"lng":145.640656,"state/territory":"Victoria","population":4659},{"id":50,"city":"Coffs Harbour","lat":-30.296261,"lng":153.11351,"state/territory":"New South Wales","population":62978},{"id":51,"city":"Colac","lat":-38.339001,"lng":143.584885,"state/territory":"Victoria","population":9089},{"id":52,"city":"Cooma","lat":-36.234692,"lng":149.125977,"state/territory":"New South Wales","population":6520},{"id":53,"city":"Cowell","lat":-33.68227,"lng":136.921173,"state/territory":"South Australia","population":537},{"id":54,"city":"Cowra","lat":-33.835541,"lng":148.696625,"state/territory":"New South Wales","population":6795},{"id":55,"city":"Cranbourne","lat":-38.1,"lng":145.283333,"state/territory":"Victoria","population":460491},{"id":56,"city":"Currie","lat":-39.929759,"lng":143.853847,"state/territory":"Tasmania","population":""},{"id":57,"city":"Dalby","lat":-27.18169,"lng":151.262054,"state/territory":"Queensland","population":9847},{"id":58,"city":"Darwin","lat":-12.45722,"lng":130.836639,"state/territory":"Northern Territory","population":93080},{"id":59,"city":"Deniliquin","lat":-35.532447,"lng":144.953643,"state/territory":"New South Wales","population":8024},{"id":60,"city":"Devonport","lat":-41.176949,"lng":146.351517,"state/territory":"Tasmania","population":19317},{"id":61,"city":"Dubbo","lat":-32.24295,"lng":148.604843,"state/territory":"New South Wales","population":31574},{"id":62,"city":"East Maitland","lat":-32.75,"lng":151.583333,"state/territory":"New South Wales","population":18625},{"id":63,"city":"Echuca","lat":-36.140572,"lng":144.751846,"state/territory":"Victoria","population":19457},{"id":64,"city":"Eidsvold","lat":-25.370609,"lng":151.122589,"state/territory":"Queensland","population":459},{"id":65,"city":"Emerald","lat":-23.522961,"lng":148.157837,"state/territory":"Queensland","population":9398},{"id":66,"city":"Esperance","lat":-33.86013,"lng":121.882591,"state/territory":"Western Australia","population":7888},{"id":67,"city":"Exmouth","lat":-21.940201,"lng":114.125008,"state/territory":"Western Australia","population":1085},{"id":68,"city":"Forbes","lat":-33.384361,"lng":148.007599,"state/territory":"New South Wales","population":4838},{"id":69,"city":"Forster","lat":-32.181358,"lng":152.517151,"state/territory":"New South Wales","population":17591},{"id":70,"city":"Gawler","lat":-34.602509,"lng":138.749023,"state/territory":"South Australia","population":16362},{"id":71,"city":"Geelong","lat":-38.153461,"lng":144.358093,"state/territory":"Victoria","population":160991},{"id":72,"city":"Georgetown","lat":-18.29199,"lng":143.545837,"state/territory":"Queensland","population":818},{"id":73,"city":"Geraldton","lat":-28.778971,"lng":114.614594,"state/territory":"Western Australia","population":27258},{"id":74,"city":"Gingin","lat":-31.347219,"lng":115.90432,"state/territory":"Western Australia","population":1446},{"id":75,"city":"Gladstone","lat":-23.84761,"lng":151.256348,"state/territory":"Queensland","population":30489},{"id":76,"city":"Gold Coast","lat":-28.00029,"lng":153.430878,"state/territory":"Queensland","population":527660},{"id":77,"city":"Goondiwindi","lat":-28.5464,"lng":150.307297,"state/territory":"Queensland","population":4251},{"id":78,"city":"Goulburn","lat":-34.751549,"lng":149.720856,"state/territory":"New South Wales","population":20940},{"id":79,"city":"Griffith","lat":-34.288528,"lng":146.050934,"state/territory":"New South Wales","population":15455},{"id":80,"city":"Gunnedah","lat":-30.98065,"lng":150.258377,"state/territory":"New South Wales","population":7148},{"id":81,"city":"Gympie South","lat":-26.211519,"lng":152.64769,"state/territory":"Queensland","population":11649},{"id":82,"city":"Halls Creek","lat":-18.22485,"lng":127.666473,"state/territory":"Western Australia","population":1209},{"id":83,"city":"Hamilton","lat":-37.74334,"lng":142.028915,"state/territory":"Victoria","population":8869},{"id":84,"city":"Hervey Bay","lat":-25.29052,"lng":152.873764,"state/territory":"Queensland","population":25114},{"id":85,"city":"Hobart","lat":-42.883209,"lng":147.331665,"state/territory":"Tasmania","population":80870},{"id":86,"city":"Horsham","lat":-36.711311,"lng":142.199814,"state/territory":"Victoria","population":12830},{"id":87,"city":"Hughenden","lat":-20.84399,"lng":144.200348,"state/territory":"Queensland","population":421},{"id":88,"city":"Innisfail","lat":-17.522091,"lng":146.031021,"state/territory":"Queensland","population":10143},{"id":89,"city":"Inverell","lat":-29.774031,"lng":151.111664,"state/territory":"New South Wales","population":8561},{"id":90,"city":"Ivanhoe","lat":-32.900379,"lng":144.301498,"state/territory":"New South Wales","population":265},{"id":91,"city":"Kalbarri","lat":-27.710501,"lng":114.165047,"state/territory":"Western Australia","population":1537},{"id":92,"city":"Kalgoorlie","lat":-30.743762,"lng":121.465902,"state/territory":"Western Australia","population":36852},{"id":93,"city":"Karratha","lat":-20.738951,"lng":116.842949,"state/territory":"Western Australia","population":16796},{"id":94,"city":"Karumba","lat":-17.488819,"lng":140.838196,"state/territory":"Queensland","population":173},{"id":95,"city":"Katanning","lat":-33.68787,"lng":117.558403,"state/territory":"Western Australia","population":3934},{"id":96,"city":"Katherine","lat":-14.46517,"lng":132.263474,"state/territory":"Northern Territory","population":10141},{"id":97,"city":"Katoomba","lat":-33.713032,"lng":150.311737,"state/territory":"New South Wales","population":22076},{"id":98,"city":"Kempsey","lat":-31.078979,"lng":152.830933,"state/territory":"New South Wales","population":11840},{"id":99,"city":"Kiama","lat":-34.668282,"lng":150.852188,"state/territory":"New South Wales","population":10379},{"id":100,"city":"Kimba","lat":-33.14164,"lng":136.418747,"state/territory":"South Australia","population":636},{"id":101,"city":"Kingaroy","lat":-26.53994,"lng":151.837296,"state/territory":"Queensland","population":8573},{"id":102,"city":"Kingoonya","lat":-30.9,"lng":135.3,"state/territory":"South Australia","population":50},{"id":103,"city":"Kingston Beach","lat":-42.983333,"lng":147.316667,"state/territory":"Tasmania","population":14371},{"id":104,"city":"Kingston South East","lat":-36.83073,"lng":139.852203,"state/territory":"South Australia","population":206},{"id":105,"city":"Kununurra","lat":-15.77813,"lng":128.744141,"state/territory":"Western Australia","population":5679},{"id":106,"city":"Kwinana","lat":-32.230129,"lng":115.781281,"state/territory":"Western Australia","population":20086},{"id":107,"city":"Launceston","lat":-41.438759,"lng":147.134674,"state/territory":"Tasmania","population":72458},{"id":108,"city":"Laverton","lat":-28.625311,"lng":122.399399,"state/territory":"Western Australia","population":316},{"id":109,"city":"Leeton","lat":-34.551048,"lng":146.404831,"state/territory":"New South Wales","population":7299},{"id":110,"city":"Leonora","lat":-28.88509,"lng":121.330742,"state/territory":"Western Australia","population":227},{"id":111,"city":"Lithgow","lat":-33.482471,"lng":150.136307,"state/territory":"New South Wales","population":11128},{"id":112,"city":"Longreach","lat":-23.44212,"lng":144.249207,"state/territory":"Queensland","population":2894},{"id":113,"city":"Mandurah","lat":-32.526901,"lng":115.721703,"state/territory":"Western Australia","population":73356},{"id":114,"city":"Manjimup","lat":-34.241219,"lng":116.145638,"state/territory":"Western Australia","population":4240},{"id":115,"city":"Maryborough","lat":-25.54073,"lng":152.704926,"state/territory":"Queensland","population":20678},{"id":116,"city":"Maryborough","lat":-37.04562,"lng":143.739227,"state/territory":"Victoria","population":7046},{"id":117,"city":"McMinns Lagoon","lat":-12.55397,"lng":131.111649,"state/territory":"Northern Territory","population":5025},{"id":118,"city":"Meekatharra","lat":-26.59524,"lng":118.493927,"state/territory":"Western Australia","population":654},{"id":119,"city":"Melbourne","lat":-37.813938,"lng":144.963425,"state/territory":"Victoria","population":""},{"id":120,"city":"Melton","lat":-37.683392,"lng":144.585434,"state/territory":"Victoria","population":32368},{"id":121,"city":"Meningie","lat":-35.688412,"lng":139.338562,"state/territory":"South Australia","population":1501},{"id":122,"city":"Merredin","lat":-31.48094,"lng":118.274483,"state/territory":"Western Australia","population":2668},{"id":123,"city":"Mildura","lat":-34.185509,"lng":142.162506,"state/territory":"Victoria","population":47867},{"id":124,"city":"Moranbah","lat":-21.99828,"lng":148.034836,"state/territory":"Queensland","population":10000},{"id":125,"city":"Morawa","lat":-29.21343,"lng":116.007912,"state/territory":"Western Australia","population":259},{"id":126,"city":"Moree","lat":-29.46278,"lng":149.841568,"state/territory":"New South Wales","population":8203},{"id":127,"city":"Mount Barker","lat":-34.63084,"lng":117.666061,"state/territory":"Western Australia","population":1781},{"id":128,"city":"Mount Gambier","lat":-37.831799,"lng":140.77919,"state/territory":"South Australia","population":23209},{"id":129,"city":"Mount Isa","lat":-20.725229,"lng":139.497269,"state/territory":"Queensland","population":33200},{"id":130,"city":"Mount Magnet","lat":-28.064791,"lng":117.849037,"state/territory":"Western Australia","population":424},{"id":131,"city":"Mudgee","lat":-32.59948,"lng":149.587067,"state/territory":"New South Wales","population":5391},{"id":132,"city":"Murray Bridge","lat":-35.119862,"lng":139.273453,"state/territory":"South Australia","population":18194},{"id":133,"city":"Muswellbrook","lat":-32.261181,"lng":150.890091,"state/territory":"New South Wales","population":11630},{"id":134,"city":"Narrabri West","lat":-30.333333,"lng":149.75,"state/territory":"New South Wales","population":7082},{"id":135,"city":"Narrogin","lat":-32.932819,"lng":117.177628,"state/territory":"Western Australia","population":4238},{"id":136,"city":"Newcastle","lat":-32.927792,"lng":151.784485,"state/territory":"New South Wales","population":1134616},{"id":137,"city":"Newman","lat":-23.394506,"lng":119.729637,"state/territory":"Western Australia","population":5138},{"id":138,"city":"Norseman","lat":-32.197689,"lng":121.778732,"state/territory":"Western Australia","population":1004},{"id":139,"city":"North Lismore","lat":-28.8,"lng":153.283333,"state/territory":"New South Wales","population":31430},{"id":140,"city":"North Mackay","lat":-21.116667,"lng":149.183333,"state/territory":"Queensland","population":75922},{"id":141,"city":"North Scottsdale","lat":-41.121545,"lng":147.559519,"state/territory":"Tasmania","population":2468},{"id":142,"city":"Northam","lat":-31.649321,"lng":116.674232,"state/territory":"Western Australia","population":5855},{"id":143,"city":"Nowra","lat":-34.88422,"lng":150.600357,"state/territory":"New South Wales","population":94781},{"id":144,"city":"Oatlands","lat":-42.30302,"lng":147.367233,"state/territory":"Tasmania","population":1157},{"id":145,"city":"Onslow","lat":-21.636869,"lng":115.111687,"state/territory":"Western Australia","population":573},{"id":146,"city":"Orange","lat":-33.283089,"lng":149.100006,"state/territory":"New South Wales","population":39329},{"id":147,"city":"Ouyen","lat":-35.070869,"lng":142.320343,"state/territory":"Victoria","population":1400},{"id":148,"city":"Pambula","lat":-36.930099,"lng":149.874496,"state/territory":"New South Wales","population":6367},{"id":149,"city":"Pannawonica","lat":-21.639179,"lng":116.322227,"state/territory":"Western Australia","population":686},{"id":150,"city":"Parkes","lat":-33.137199,"lng":148.175903,"state/territory":"New South Wales","population":11137},{"id":151,"city":"Penola","lat":-37.375198,"lng":140.836777,"state/territory":"South Australia","population":1514},{"id":152,"city":"Perth","lat":-31.95224,"lng":115.861397,"state/territory":"Western Australia","population":1532000},{"id":153,"city":"Peterborough","lat":-32.97205,"lng":138.840729,"state/territory":"South Australia","population":1689},{"id":154,"city":"Pine Creek","lat":-13.82077,"lng":131.832947,"state/territory":"Northern Territory","population":665},{"id":155,"city":"Port Augusta West","lat":-32.483333,"lng":137.75,"state/territory":"South Australia","population":13897},{"id":156,"city":"Port Denison","lat":-29.283333,"lng":114.916667,"state/territory":"Western Australia","population":1213},{"id":157,"city":"Port Douglas","lat":-16.483829,"lng":145.467255,"state/territory":"Queensland","population":3000},{"id":158,"city":"Port Hedland","lat":-20.312149,"lng":118.610588,"state/territory":"Western Australia","population":14288},{"id":159,"city":"Port Lincoln","lat":-34.72625,"lng":135.87442,"state/territory":"South Australia","population":13630},{"id":160,"city":"Port Macquarie","lat":-31.43084,"lng":152.908936,"state/territory":"New South Wales","population":48547},{"id":161,"city":"Port Pirie","lat":-33.191761,"lng":138.017456,"state/territory":"South Australia","population":12506},{"id":162,"city":"Portland","lat":-38.352612,"lng":141.605743,"state/territory":"Victoria","population":11808},{"id":163,"city":"Proserpine","lat":-20.4011,"lng":148.5802,"state/territory":"Queensland","population":3976},{"id":164,"city":"Queanbeyan","lat":-35.354931,"lng":149.231995,"state/territory":"New South Wales","population":32602},{"id":165,"city":"Queenstown","lat":-42.080502,"lng":145.556458,"state/territory":"Tasmania","population":2352},{"id":166,"city":"Quilpie","lat":-26.61348,"lng":144.269485,"state/territory":"Queensland","population":560},{"id":167,"city":"Ravensthorpe","lat":-33.583031,"lng":120.046883,"state/territory":"Western Australia","population":1101},{"id":168,"city":"Richmond","lat":-20.73243,"lng":143.143555,"state/territory":"Queensland","population":296},{"id":169,"city":"Richmond North","lat":-33.581169,"lng":150.719421,"state/territory":"New South Wales","population":13880},{"id":170,"city":"Rockhampton","lat":-23.38032,"lng":150.505951,"state/territory":"Queensland","population":65850},{"id":171,"city":"Roebourne","lat":-20.772289,"lng":117.146477,"state/territory":"Western Australia","population":19260},{"id":172,"city":"Roma","lat":-26.56741,"lng":148.787506,"state/territory":"Queensland","population":5496},{"id":173,"city":"Sale","lat":-38.11095,"lng":147.068024,"state/territory":"Victoria","population":22486},{"id":174,"city":"Scone","lat":-32.05014,"lng":150.868927,"state/territory":"New South Wales","population":4624},{"id":175,"city":"Seymour","lat":-37.02655,"lng":145.139236,"state/territory":"Victoria","population":3693},{"id":176,"city":"Shepparton","lat":-36.38047,"lng":145.398666,"state/territory":"Victoria","population":33550},{"id":177,"city":"Singleton","lat":-32.567421,"lng":151.166031,"state/territory":"New South Wales","population":13813},{"id":178,"city":"Smithton","lat":-40.845868,"lng":145.124975,"state/territory":"Tasmania","population":4202},{"id":179,"city":"South Grafton","lat":-29.7,"lng":152.95,"state/territory":"New South Wales","population":9955},{"id":180,"city":"South Ingham","lat":-18.65,"lng":146.166667,"state/territory":"Queensland","population":6127},{"id":181,"city":"South Melbourne","lat":-37.833333,"lng":144.966667,"state/territory":"Victoria","population":4170000},{"id":182,"city":"Southern Cross","lat":-31.22677,"lng":119.323761,"state/territory":"Western Australia","population":187},{"id":183,"city":"Stawell","lat":-37.05632,"lng":142.780884,"state/territory":"Victoria","population":6991},{"id":184,"city":"Streaky Bay","lat":-32.79924,"lng":134.211594,"state/territory":"South Australia","population":1060},{"id":185,"city":"Sunbury","lat":-37.577419,"lng":144.726074,"state/territory":"Victoria","population":29925},{"id":186,"city":"Swan Hill","lat":-35.3383,"lng":143.552652,"state/territory":"Victoria","population":9276},{"id":187,"city":"Sydney","lat":-33.861481,"lng":151.205475,"state/territory":"New South Wales","population":4630000},{"id":188,"city":"Taree","lat":-31.91099,"lng":152.453873,"state/territory":"New South Wales","population":44182},{"id":189,"city":"Thargomindah","lat":-27.99498,"lng":143.823914,"state/territory":"Queensland","population":203},{"id":190,"city":"Theodore","lat":-24.94743,"lng":150.075287,"state/territory":"Queensland","population":246},{"id":191,"city":"Three Springs","lat":-29.533609,"lng":115.760529,"state/territory":"Western Australia","population":190},{"id":192,"city":"Tom Price","lat":-22.69408,"lng":117.787651,"state/territory":"Western Australia","population":2723},{"id":193,"city":"Toowoomba","lat":-27.56056,"lng":151.953857,"state/territory":"Queensland","population":92800},{"id":194,"city":"Townsville","lat":-19.26639,"lng":146.805695,"state/territory":"Queensland","population":138954},{"id":195,"city":"Traralgon","lat":-38.195278,"lng":146.541504,"state/territory":"Victoria","population":18226},{"id":196,"city":"Tumby Bay","lat":-34.375061,"lng":136.103333,"state/territory":"South Australia","population":1791},{"id":197,"city":"Tumut","lat":-35.300159,"lng":148.225052,"state/territory":"New South Wales","population":6526},{"id":198,"city":"Tweed Heads","lat":-28.17561,"lng":153.542007,"state/territory":"New South Wales","population":33065},{"id":199,"city":"Ulladulla","lat":-35.359058,"lng":150.472473,"state/territory":"New South Wales","population":9250},{"id":200,"city":"Victor Harbor","lat":-35.550419,"lng":138.621536,"state/territory":"South Australia","population":7760},{"id":201,"city":"Wagga Wagga","lat":-35.125771,"lng":147.353745,"state/territory":"New South Wales","population":55381},{"id":202,"city":"Wagin","lat":-33.308941,"lng":117.343277,"state/territory":"Western Australia","population":1598},{"id":203,"city":"Wallaroo","lat":-33.938808,"lng":137.633652,"state/territory":"South Australia","population":2779},{"id":204,"city":"Wangaratta","lat":-36.358459,"lng":146.320557,"state/territory":"Victoria","population":14022},{"id":205,"city":"Warrnambool","lat":-38.38176,"lng":142.487991,"state/territory":"Victoria","population":29928},{"id":206,"city":"Warwick","lat":-28.219009,"lng":152.034378,"state/territory":"Queensland","population":12347},{"id":207,"city":"Weipa","lat":-12.62346,"lng":141.87883,"state/territory":"Queensland","population":2830},{"id":208,"city":"West Tamworth","lat":-31.10625,"lng":150.909356,"state/territory":"New South Wales","population":38551},{"id":209,"city":"Whyalla","lat":-33.032681,"lng":137.564835,"state/territory":"South Australia","population":22559},{"id":210,"city":"Wilcannia","lat":-31.56031,"lng":143.377045,"state/territory":"New South Wales","population":442},{"id":211,"city":"Windorah","lat":-25.42224,"lng":142.656597,"state/territory":"Queensland","population":158},{"id":212,"city":"Winton","lat":-22.381849,"lng":143.042404,"state/territory":"Queensland","population":1157},{"id":213,"city":"Wollongong","lat":-34.424,"lng":150.893448,"state/territory":"New South Wales","population":260914},{"id":214,"city":"Wonthaggi","lat":-38.605862,"lng":145.593552,"state/territory":"Victoria","population":5985},{"id":215,"city":"Woomera","lat":-31.19981,"lng":136.832581,"state/territory":"South Australia","population":450},{"id":216,"city":"Yamba","lat":-29.43545,"lng":153.360306,"state/territory":"New South Wales","population":1806},{"id":217,"city":"Yeppoon","lat":-23.126829,"lng":150.744064,"state/territory":"Queensland","population":10769},{"id":218,"city":"Young","lat":-34.313499,"lng":148.301071,"state/territory":"New South Wales","population":7501},{"id":219,"city":"Yulara","lat":-25.245291,"lng":130.980545,"state/territory":"Northern Territory","population":930}]